City_ID,City,Lat,Lng,Max Temp,Humidity,Cloudiness,Wind Speed,Country,Date
0,petropavlovsk-kamchatsky,53.0452,158.6483,1.45,73,96,10.0,RU,1706713866
1,grytviken,-54.2811,-36.5092,44.44,41,91,2.44,GS,1706714096
2,holualoa,19.6228,-155.9522,70.77,88,100,0.0,US,1706714096
3,tual,-5.6667,132.75,83.55,79,28,16.91,ID,1706714097
4,college,64.8569,-147.8028,-28.55,72,40,0.0,US,1706714097
5,el abiodh sidi cheikh,32.893,0.5484,58.24,38,10,6.76,DZ,1706714097
6,kone,-21.0595,164.8658,75.88,93,77,3.58,NC,1706714097
7,port-aux-francais,-49.35,70.2167,39.87,75,99,24.25,TF,1706714098
8,tazovsky,67.4667,78.7,-13.45,98,11,10.94,RU,1706714098
9,dubbo,-32.25,148.6167,75.33,73,0,12.66,AU,1706714098
10,labrador city,52.9463,-66.9114,18.18,83,100,18.99,CA,1706713811
11,hermanus,-34.4187,19.2345,74.8,82,97,10.22,ZA,1706714099
12,waitangi,-43.9535,-176.5597,62.82,98,100,7.99,NZ,1706714099
13,tiksi,71.6872,128.8694,-15.57,98,53,4.7,RU,1706713897
14,edinburgh of the seven seas,-37.0676,-12.3116,61.41,67,99,13.27,SH,1706714100
15,santa eularia des riu,38.9846,1.5341,61.3,65,75,9.22,ES,1706714100
16,carnarvon,-24.8667,113.6333,85.24,53,11,21.12,AU,1706714100
17,antonio enes,-16.2325,39.9086,82.56,67,55,7.83,MZ,1706714101
18,puerto natales,-51.7236,-72.4875,49.55,87,100,5.14,CL,1706713883
19,vorgashor,67.5833,63.95,2.48,96,98,10.51,RU,1706714101
20,albany,42.6001,-73.9662,34.54,81,90,1.01,US,1706714101
21,thompson,55.7435,-97.8558,8.76,78,100,16.11,CA,1706714102
22,yuzhno-kurilsk,44.0306,145.8556,28.38,71,99,11.18,RU,1706714106
23,lihue,21.9789,-159.3672,69.39,85,100,5.75,US,1706714112
24,itoman,26.1247,127.6694,72.37,83,40,12.66,JP,1706714113
25,shingu,33.7333,135.9833,54.3,96,100,2.26,JP,1706714113
26,adamstown,-25.066,-130.1015,74.16,90,100,13.13,PN,1706714114
27,port mathurin,-19.6833,63.4167,82.27,79,44,19.48,MU,1706714114
28,clinton,42.587,-82.9199,36.27,91,100,3.44,US,1706714115
29,angaur state,6.906,134.13,81.99,81,68,19.19,PW,1706714115
30,kharp,66.8014,65.8081,-5.01,100,100,1.77,RU,1706714115
31,paramonga,-10.6667,-77.8333,77.74,75,99,8.14,PE,1706714116
32,coron,11.9986,120.2043,76.57,85,100,3.71,PH,1706714116
33,udachny,66.4167,112.4,-17.55,75,74,2.33,RU,1706714116
34,iqaluit,63.7506,-68.5145,-29.47,62,20,20.71,CA,1706714116
35,perryton,36.4,-100.8027,31.93,74,0,6.91,US,1706714116
36,nuuk,64.1835,-51.7216,18.21,79,100,12.66,GL,1706714117
37,ilulissat,69.2167,-51.1,-7.58,54,20,3.44,GL,1706714117
38,bethel,41.3712,-73.414,36.01,77,100,6.91,US,1706714117
39,ushuaia,-54.8,-68.3,55.02,58,0,12.66,AR,1706713820
40,blackmans bay,-43.0167,147.3167,59.74,62,100,6.82,AU,1706714118
41,senigallia,43.7093,13.2167,53.47,70,100,4.61,IT,1706714118
42,tartu,58.3806,26.7251,37.65,89,100,12.66,EE,1706714118
43,pimentel,-6.8367,-79.9342,82.69,61,0,11.5,PE,1706714002
44,puerto ayora,-0.7393,-90.3518,85.96,83,87,13.82,EC,1706714118
45,sandnessjoen,66.0217,12.6316,44.71,57,75,29.93,NO,1706714119
46,port elizabeth,-33.918,25.5701,79.32,73,0,8.05,ZA,1706714119
47,gryazi,52.4966,39.9359,28.18,96,100,5.01,RU,1706714119
48,bredasdorp,-34.5322,20.0403,79.34,54,94,17.58,ZA,1706714119
49,kingston,17.997,-76.7936,80.24,75,2,3.0,JM,1706714074
50,norderney,53.7,7.15,43.99,79,95,27.07,DE,1706714120
51,conception bay south,47.4999,-52.9981,24.93,87,100,13.09,CA,1706714120
52,mindelo,16.8901,-24.9804,80.15,44,0,23.02,CV,1706714120
53,anadyr,64.75,177.4833,-30.5,73,0,1.99,RU,1706714121
54,vadso,70.0744,29.7487,30.36,80,0,19.57,NO,1706714121
55,tadine,-21.55,167.8833,75.29,74,55,5.95,NC,1706714121
56,as sulayyil,20.4607,45.5779,86.25,30,72,9.28,SA,1706714122
57,stanley,54.868,-1.6985,46.76,83,75,24.16,GB,1706714122
58,matoury,4.8483,-52.3317,85.96,70,75,18.41,GF,1706714122
59,new norfolk,-42.7826,147.0587,60.93,75,100,4.52,AU,1706714122
60,iskateley,67.6803,53.1512,32.02,93,100,21.0,RU,1706714123
61,haiku-pauwela,20.9219,-156.3051,70.03,89,75,1.01,US,1706714123
62,papatowai,-46.5619,169.4708,51.44,96,100,2.3,NZ,1706713853
63,san miguel,13.4833,-88.1833,82.06,41,0,14.97,SV,1706714124
64,cozumel,20.5083,-86.9458,76.06,66,0,10.36,MX,1706713940
65,spring creek,40.7266,-115.5859,32.31,70,2,4.36,US,1706714124
66,namibe,-15.1961,12.1522,81.03,70,5,13.82,AO,1706713881
67,bilibino,68.0546,166.4372,-25.89,99,100,0.83,RU,1706714124
68,goz beida,13.95,20.55,88.99,11,0,15.05,TD,1706714125
69,touros,-5.1989,-35.4608,88.52,55,23,15.12,BR,1706714125
70,surin,14.8818,103.4936,81.16,48,58,5.35,TH,1706714125
71,andergrove,-21.0833,149.1833,78.37,90,100,2.71,AU,1706714125
72,longyearbyen,78.2186,15.6401,15.64,67,75,19.57,SJ,1706714126
73,jamestown,42.097,-79.2353,38.01,94,0,6.91,US,1706714095
74,kodiak,57.79,-152.4072,-0.89,78,0,8.05,US,1706714126
75,mozarlandia,-14.7447,-50.5706,87.64,59,45,4.05,BR,1706713887
76,punta arenas,-53.15,-70.9167,50.11,81,100,4.61,CL,1706713900
77,noyabrsk,63.1994,75.4507,0.99,96,100,12.06,RU,1706714127
78,georgetown,5.4112,100.3354,84.13,74,20,2.3,MY,1706713967
79,sao felix do xingu,-6.6447,-51.995,83.84,79,97,2.95,BR,1706714127
80,salym,60.0625,71.4789,11.14,93,100,9.1,RU,1706714127
81,akureyri,65.6835,-18.0878,28.33,64,40,9.22,IS,1706714128
82,walvis bay,-22.9575,14.5053,77.95,61,0,19.57,NA,1706714128
83,antsiranana,-12.2787,49.2917,80.15,83,78,3.0,MG,1706714128
84,aasiaat,68.7098,-52.8699,-15.95,93,22,5.99,GL,1706714128
85,yellowknife,62.456,-114.3525,9.12,92,100,3.44,CA,1706713856
86,sepuka,-4.75,34.5333,72.66,81,99,0.89,TZ,1706714129
87,uturoa,-16.7333,-151.4333,83.57,75,100,9.71,PF,1706713994
88,kudahuvadhoo,2.6708,72.8944,81.93,76,36,12.73,MV,1706714129
89,boguchany,58.3814,97.4531,-19.14,99,15,3.0,RU,1706714129
90,keflavik,64.0049,-22.5624,30.11,80,75,50.64,IS,1706714130
91,luderitz,-26.6481,15.1594,75.24,62,1,27.29,NA,1706714130
92,bandar abbas,27.1865,56.2808,75.18,73,5,6.91,IR,1706714130
93,port pirie,-33.1833,138.0167,65.71,56,0,10.87,AU,1706714130
94,mount pearl,47.5166,-52.7813,24.33,87,100,5.01,CA,1706714003
95,sarande,39.8756,20.0053,58.73,38,0,2.55,AL,1706714131
96,thames,-37.1333,175.5333,62.94,93,93,4.59,NZ,1706714131
97,urazovo,50.0836,38.0395,30.11,89,98,6.31,RU,1706714131
98,polyarnyy,69.1989,33.4478,29.5,88,100,17.05,RU,1706714131
99,badger,64.8,-147.5333,-28.64,72,40,0.0,US,1706714132
100,quepos,9.4236,-84.1652,85.95,44,19,1.59,CR,1706714132
101,vytegra,61.0064,36.4481,32.36,98,100,8.01,RU,1706714132
102,richards bay,-28.783,32.0377,80.55,65,14,12.33,ZA,1706714132
103,marsabit,2.3284,37.9899,76.64,46,100,12.93,KE,1706714132
104,ribeira grande,38.5167,-28.7,63.0,82,75,9.22,PT,1706714133
105,utrik,11.2278,169.8474,78.53,87,100,22.15,MH,1706714133
106,camalu,30.85,-116.0667,58.32,66,67,1.61,MX,1706713888
107,novyy urengoy,66.0833,76.6333,-13.7,100,72,9.71,RU,1706714133
108,afaahiti,-17.75,-149.2833,80.19,83,100,11.95,PF,1706714135
109,hasaki,35.7333,140.8333,57.6,84,42,17.63,JP,1706714135
110,kampong thom,12.7111,104.8887,79.93,54,43,1.79,KH,1706714135
111,mogocha,53.7333,119.7667,-20.58,97,5,3.6,RU,1706713895
112,copiapo,-27.3667,-70.3333,80.47,53,3,6.8,CL,1706714064
113,necochea,-38.5473,-58.7368,91.71,30,2,3.56,AR,1706714136
114,kimbe,-5.5502,150.1429,78.46,92,100,1.66,PG,1706714136
115,nyagan,62.1406,65.3936,3.51,99,93,1.43,RU,1706714136
116,winslow,35.0242,-110.6974,28.58,86,0,0.0,US,1706714086
117,hawaiian paradise park,19.5933,-154.9731,69.89,98,100,6.91,US,1706714137
118,mokhotlong,-29.2894,29.0675,71.47,51,42,7.0,LS,1706714137
119,butterworth,5.3991,100.3638,84.25,79,20,2.3,MY,1706714137
120,ash shatrah,31.4117,46.1742,63.54,31,0,9.48,IQ,1706714137
121,katabu,-4.9333,122.5167,78.12,88,100,3.27,ID,1706713999
122,port blair,11.6667,92.75,80.64,83,20,2.3,IN,1706714138
123,nar'yan-mar,67.6713,53.087,32.11,93,100,21.0,RU,1706714138
124,portland,45.5234,-122.6762,55.0,79,100,18.41,US,1706713965
125,constantia,44.1833,28.65,41.68,58,3,1.52,RO,1706713997
126,la'ie,21.6477,-157.9253,71.56,94,28,7.29,US,1706714139
127,pisco,-13.7,-76.2167,80.65,65,0,4.61,PE,1706713952
128,bloemfontein,-29.1211,26.214,83.68,42,40,2.3,ZA,1706714118
129,souillac,-20.5167,57.5167,82.78,78,40,6.91,MU,1706714139
130,invercargill,-46.4,168.35,54.01,97,100,1.99,NZ,1706714139
131,amfissa,38.525,22.3731,46.51,61,5,6.04,GR,1706714140
132,wailua homesteads,22.0669,-159.378,68.79,90,100,5.75,US,1706714140
133,alexandria,31.2156,29.9553,56.37,50,81,12.21,EG,1706714030
134,egilsstadir,65.2653,-14.3948,19.27,81,69,8.12,IS,1706713898
135,broken hill,-31.95,141.4333,71.13,25,0,12.37,AU,1706714141
136,brookings,44.3114,-96.7984,36.37,95,0,5.75,US,1706714127
137,codrington,-38.2667,141.9667,56.05,94,100,6.51,AU,1706714141
138,nuku'alofa,-21.1333,-175.2,77.34,100,20,3.44,TO,1706714141
139,margaret river,-33.95,115.0667,64.35,87,1,11.5,AU,1706714142
140,tura,25.5198,90.2201,62.55,51,78,3.56,IN,1706714142
141,zaozersk,69.4005,32.4476,27.23,90,100,15.26,RU,1706714142
142,gaillimh,53.2719,-9.0489,46.83,87,100,15.82,IE,1706714142
143,lewistown,40.5992,-77.5714,38.61,87,100,0.0,US,1706714142
144,abeche,13.8292,20.8324,90.09,10,0,11.88,TD,1706714143
145,fale old settlement,-9.3852,-171.2468,85.03,67,100,5.93,TK,1706714143
146,parry sound,45.3501,-80.033,33.85,93,100,6.44,CA,1706714143
147,alofi,-19.0595,-169.9187,81.39,83,100,12.35,NU,1706714143
148,saudarkrokur,65.7461,-19.6394,18.23,89,84,8.86,IS,1706714144
149,al muwayh,22.4333,41.7583,71.55,32,2,16.98,SA,1706714144
150,saldanha,-33.0117,17.9442,75.25,82,99,20.71,ZA,1706714144
151,christchurch,-43.5333,172.6333,61.0,86,100,3.44,NZ,1706713892
152,atchison,39.563,-95.1216,39.31,80,0,6.73,US,1706714144
153,starke,29.9441,-82.1098,60.66,51,0,12.66,US,1706714145
154,bosaso,11.2842,49.1816,77.63,69,77,5.91,SO,1706714145
155,nemuro,43.3236,145.575,30.24,93,98,12.35,JP,1706714145
156,champerico,14.3,-91.9167,84.74,66,50,4.21,GT,1706714145
157,brokopondo,4.75,-55.1667,84.47,68,97,6.71,SR,1706714145
158,leh,34.1667,77.5833,19.38,41,63,5.26,IN,1706714146
159,mahibadhoo,3.7833,72.9667,82.0,77,58,8.08,MV,1706714146
160,smara,26.7384,-11.6719,79.05,13,0,15.03,EH,1706714146
161,alappuzha,9.49,76.3264,81.0,73,86,5.75,IN,1706714146
162,hobyo,5.3505,48.5268,80.62,66,72,15.19,SO,1706714147
163,nikolayevsk-on-amure,53.1406,140.73,-5.37,95,99,4.5,RU,1706714147
164,hamilton,39.1834,-84.5333,39.43,91,100,6.91,US,1706713978
165,tarija,-21.5355,-64.7296,78.71,47,20,3.44,BO,1706714147
166,khandyga,62.6667,135.6,-34.6,98,100,2.01,RU,1706714147
167,nova xavantina,-14.6667,-52.35,90.79,53,47,2.15,BR,1706714148
168,horsham,51.064,-0.3272,50.25,75,75,10.36,GB,1706714148
169,talnakh,69.4865,88.3972,-9.47,76,46,9.48,RU,1706714148
170,mitake,35.4167,137.1333,44.38,98,100,2.06,JP,1706714148
171,villa gesell,-37.2639,-56.973,91.06,49,14,9.93,AR,1706714149
172,el porvenir,13.7617,-87.3458,69.13,48,3,5.55,HN,1706714149
173,baardheere,2.3446,42.2764,96.46,22,100,15.41,SO,1706714149
174,sakon nakhon,17.3333,103.8333,73.31,56,68,0.92,TH,1706714149
175,bridgewater,44.3835,-64.5155,19.11,81,96,5.75,CA,1706714149
176,luang namtha,20.9497,101.4011,61.83,68,0,1.03,LA,1706714150
177,embrun,44.5639,6.4953,56.26,74,68,2.51,FR,1706714150
178,muleba,-1.8397,31.6544,73.36,68,97,5.48,TZ,1706714150
179,ocean city,39.2776,-74.5746,43.0,76,100,7.0,US,1706714150
180,pokrovsk,48.282,37.1758,33.3,72,96,6.26,UA,1706714150
181,ust-nera,64.5667,143.2,-17.3,100,100,3.85,RU,1706714151
182,enewetak,11.3474,162.3373,79.23,78,100,21.81,MH,1706714151
183,oum hadjer,13.2954,19.6966,90.19,10,0,13.09,TD,1706714151
184,floro,61.5996,5.0328,39.16,87,100,47.18,NO,1706714151
185,fort bragg,35.139,-79.006,44.82,93,100,8.05,US,1706714152
186,cam pha mines,21.0167,107.3,65.05,96,76,2.59,VN,1706714152
187,misliyah,17.4599,42.5572,80.64,62,91,11.52,SA,1706714152
188,coquimbo,-29.9533,-71.3436,65.93,82,100,11.5,CL,1706714152
189,raychikhinsk,49.7838,129.4121,-15.11,99,97,7.0,RU,1706714152
190,tarawa,1.419,172.984,82.49,89,100,2.3,KI,1706714153
191,west island,-12.1568,96.8225,82.38,74,7,5.75,CC,1706714153
192,rethymno,35.3647,24.4714,51.42,75,100,30.33,GR,1706714153
193,klyuchi,52.2667,79.1667,12.4,92,49,8.5,RU,1706714153
194,saint-pierre,-21.3393,55.4781,80.28,83,20,24.16,RE,1706714154
195,nadi,-17.8,177.4167,78.8,94,75,2.3,FJ,1706714154
196,saint-francois,46.4154,3.9054,57.65,68,0,4.61,FR,1706714154
197,east london,-33.0153,27.9116,79.74,73,0,19.57,ZA,1706714154
198,strathalbyn,-35.2667,138.9,62.19,45,11,4.65,AU,1706714154
199,juquia,-24.3208,-47.6347,92.86,47,36,2.82,BR,1706714155
200,puerto armuelles,8.2833,-82.8667,87.78,59,82,1.01,PA,1706714155
201,san pedro pochutla,15.7333,-96.4667,79.43,53,4,3.02,MX,1706714155
202,kachug,53.9606,105.8817,-23.94,99,6,1.01,RU,1706714155
203,morales,2.757,-76.6172,75.61,60,16,2.77,CO,1706714156
204,pimenta bueno,-11.6725,-61.1936,85.77,64,69,4.43,BR,1706714156
205,tyup,42.7276,78.3648,18.28,80,100,6.93,KG,1706714156
206,ta`u,-14.2336,-169.5144,83.43,72,94,4.47,AS,1706714156
207,genhe,50.7833,121.5167,-32.22,100,68,2.73,CN,1706714156
208,rio grande,-32.035,-52.0986,86.11,63,3,7.16,BR,1706714157
209,norwich,52.6278,1.2983,47.46,75,40,12.66,GB,1706714157
210,fairmont,39.4851,-80.1426,41.45,93,100,0.92,US,1706714157
211,porto novo,6.4965,2.6036,89.42,52,10,11.21,BJ,1706714157
212,chonchi,-42.6128,-73.8092,69.12,89,100,3.13,CL,1706714158
213,pedernales,18.0384,-71.744,79.18,68,2,4.45,DO,1706714158
214,kapa'a,22.0752,-159.319,70.12,87,100,5.75,US,1706714158
215,barcelos,41.5388,-8.6151,69.91,56,98,4.14,PT,1706714158
216,bereznik,62.8551,42.7072,21.45,93,70,4.68,RU,1706714158
217,porbandar,21.6422,69.6093,73.67,77,87,11.14,IN,1706714159
218,chichiriviche,10.9333,-68.2772,80.76,79,67,8.5,VE,1706714159
219,durres,41.3231,19.4414,55.58,46,0,8.03,AL,1706714139
220,suva,-18.1416,178.4415,78.28,94,75,3.44,FJ,1706714159
221,puerto baquerizo moreno,-0.9,-89.6,79.79,94,75,13.8,EC,1706713864
222,blagoveshchenka,52.8333,79.8667,11.95,94,73,7.76,RU,1706714160
223,ishigaki,24.3448,124.1572,68.13,88,40,4.61,JP,1706714154
224,ust'-ilimsk,58.0006,102.6619,-17.77,97,40,3.0,RU,1706714160
225,glace bay,46.1969,-59.957,29.98,76,75,5.75,CA,1706714160
226,boden,65.8252,21.6886,32.0,71,100,10.09,SE,1706714161
227,howard springs,-12.497,131.047,80.87,94,100,7.99,AU,1706714161
228,tropea,38.6754,15.8948,54.7,64,7,5.84,IT,1706714161
229,ancud,-41.8697,-73.8203,63.05,81,61,9.01,CL,1706714161
230,kiunga,-6.1219,141.2906,75.13,99,95,2.59,PG,1706714161
231,mokhsogollokh,61.4681,128.9203,-24.77,98,100,3.56,RU,1706714162
232,turkmenbasy,40.0222,52.9552,39.97,75,75,2.3,TM,1706714162
233,turar ryskulov,42.5333,70.3333,25.25,95,100,5.7,KZ,1706714162
234,st. john's,47.5649,-52.7093,25.16,87,100,14.97,CA,1706714162
235,karratha,-20.7377,116.8463,82.42,68,51,7.87,AU,1706714163
236,khalilabad,26.775,83.0736,58.91,57,0,0.47,IN,1706714163
237,carsamba,41.1989,36.7219,46.69,87,75,2.3,TR,1706714163
238,hami,42.8,93.45,23.4,62,57,5.37,CN,1706714164
239,betio village,1.358,172.9211,82.44,79,100,10.4,KI,1706714164
240,atafu village,-8.5421,-172.5159,83.59,73,97,4.76,TK,1706714164
241,siavonga,-16.5382,28.7088,82.6,63,7,4.76,ZM,1706714164
242,awjilah,29.1081,21.2869,56.97,30,16,16.91,LY,1706714164
243,mahdia,35.5047,11.0622,60.6,46,0,5.06,TN,1706714165
244,cadale,2.7603,46.3222,80.42,79,59,15.93,SO,1706714026
245,nagqu,31.5,92.0,19.24,35,89,5.39,CN,1706714165
246,san miguel de cauri,-10.1,-76.5833,52.09,71,100,3.58,PE,1706714165
247,kristiansund,63.1115,7.732,48.85,57,75,23.02,NO,1706714166
248,port lincoln,-34.7333,135.8667,61.27,83,0,10.67,AU,1706714166
249,fuglafjordur,62.244,-6.814,37.87,74,80,51.47,FO,1706714166
250,laojunmiao,39.8333,97.7333,19.53,46,36,5.01,CN,1706714166
251,yelizovo,53.1873,158.3805,2.8,54,0,11.18,RU,1706714166
252,gumdag,39.2061,54.5906,41.38,61,30,10.74,TM,1706714167
253,atasu,48.6814,71.6433,14.18,94,100,14.07,KZ,1706714167
254,jaguariaiva,-24.2511,-49.7058,86.11,33,1,7.76,BR,1706714167
255,geraldton,-28.7667,114.6,75.61,64,50,4.61,AU,1706714167
256,weno,7.4515,151.8468,80.55,78,75,11.5,FM,1706714168
257,ban ao nang,8.0458,98.8103,79.0,76,98,14.38,TH,1706714168
258,nadvoitsy,63.8667,34.3167,32.25,93,100,11.65,RU,1706714168
259,mahbubnagar,16.7333,77.9833,77.16,35,13,3.0,IN,1706714168
260,uribia,11.7139,-72.266,86.61,54,45,14.52,CO,1706714168
261,kitui,-1.367,38.0106,73.29,71,88,7.72,KE,1706714169
262,okhotsk,59.3833,143.3,-7.35,78,100,14.16,RU,1706714169
263,sitka,57.0531,-135.33,37.29,60,75,17.27,US,1706714169
264,daru,-9.0763,143.2092,79.2,89,26,7.76,PG,1706714169
265,east end,34.5507,-92.341,44.62,80,0,1.99,US,1706714170
266,port alfred,-33.5906,26.891,79.41,77,99,27.02,ZA,1706714170
267,robore,-18.3333,-59.75,89.69,62,20,11.5,BO,1706714170
268,santa luzia,-19.7697,-43.8514,80.94,70,75,3.44,BR,1706714170
269,avarua,-21.2078,-159.775,73.45,94,93,1.14,CK,1706714170
270,olonkinbyen,70.9221,-8.7187,23.88,63,100,26.75,SJ,1706713898
271,howrah,22.5892,88.3103,73.4,83,75,0.0,IN,1706714171
272,colonia,50.9333,6.95,46.96,66,100,9.22,DE,1706714003
273,wanning,18.8003,110.3967,69.82,89,1,4.76,CN,1706714171
274,the pas,53.8251,-101.2541,35.02,82,35,13.62,CA,1706713891
275,whitehorse,60.7161,-135.0538,12.97,48,0,4.61,CA,1706714177
276,swakopmund,-22.6833,14.5333,68.99,79,53,10.0,NA,1706714013
277,nizhneangarsk,55.7833,109.55,-16.01,90,4,1.99,RU,1706714177
278,salalah,17.0151,54.0924,78.89,78,20,9.22,OM,1706714178
279,yerkoy,39.6381,34.4672,34.29,67,0,7.85,TR,1706714178
280,hithadhoo,-0.6,73.0833,82.45,76,24,8.59,MV,1706713922
281,happy valley-goose bay,53.3168,-60.3315,25.11,54,75,10.36,CA,1706714178
282,allapalli,19.4167,80.0667,74.26,44,52,4.12,IN,1706714178
283,arauca,7.0847,-70.7591,89.56,55,20,6.91,CO,1706714179
284,zharkent,44.1628,80.0,25.45,97,100,2.1,KZ,1706714179
285,el galpon,-25.3807,-64.6526,98.24,26,21,3.02,AR,1706714179
286,hadibu,12.65,54.0333,78.33,75,59,8.25,YE,1706714179
287,argo,37.6333,22.7333,50.79,55,30,11.95,GR,1706714180
288,yichun,47.7,128.9,-18.2,99,82,4.12,CN,1706714180
289,dame-marie,18.5667,-74.4167,78.35,67,17,3.22,HT,1706714180
290,verkhniy ufaley,56.0567,60.2306,13.77,98,98,3.29,RU,1706714180
291,selfoss,63.9331,-20.9971,30.04,73,87,40.4,IS,1706714181
292,minas de marcona,-15.2119,-75.1103,72.16,63,82,9.75,PE,1706713960
293,mont-dore,-22.2833,166.5833,76.98,77,65,5.17,NC,1706714181
294,rapar,23.5667,70.6333,75.83,54,95,5.7,IN,1706714181
295,swift current,50.2834,-107.8014,38.21,87,0,11.5,CA,1706714182
296,na wa,17.4897,104.1006,73.44,53,79,3.67,TH,1706714182
297,mabai,23.0128,104.4508,49.71,99,12,3.78,CN,1706714182
298,pacific grove,36.6177,-121.9166,59.09,83,0,8.99,US,1706714182
299,la passe,45.5549,-0.8967,62.83,72,7,2.62,FR,1706714183
300,pangody,65.85,74.4859,-13.23,97,9,10.51,RU,1706714183
301,sur,22.5667,59.5289,76.35,64,94,3.38,OM,1706714183
302,alice springs,-23.7,133.8833,83.21,14,45,7.0,AU,1706714184
303,romblon,12.5751,122.2708,78.67,82,100,16.37,PH,1706714184
304,itaituba,-4.2761,-55.9836,87.96,74,40,5.75,BR,1706714184
305,malvan,16.0667,73.4667,76.21,71,80,9.15,IN,1706714184
306,klaksvik,62.2266,-6.589,38.32,71,58,55.92,FO,1706714184
307,kimberley,-28.7323,24.7623,71.29,78,75,8.05,ZA,1706714185
308,tutoia,-2.7619,-42.2744,84.78,73,98,11.1,BR,1706713885
309,adamovka,51.5223,59.9396,14.83,93,100,10.94,RU,1706714185
310,la ronge,55.1001,-105.2842,37.62,69,40,10.36,CA,1706714186
311,sao vicente,-23.9631,-46.3919,92.26,62,100,5.75,BR,1706714149
312,lompoc,34.6391,-120.4579,49.51,93,0,0.0,US,1706714190
313,saipan,15.1355,145.701,77.7,65,40,20.71,MP,1706714190
314,great falls,47.5002,-111.3008,43.99,47,0,14.97,US,1706714191
315,jabor,5.921,169.6434,81.73,80,100,12.24,MH,1706714191
316,lebu,-37.6167,-73.65,65.75,69,16,12.62,CL,1706714191
317,tabou,4.423,-7.3528,85.69,70,37,10.89,CI,1706714191
318,kavaratti,10.5669,72.642,82.09,68,68,8.32,IN,1706714192
319,hakodate,41.7758,140.7367,35.91,80,78,9.22,JP,1706714192
320,banda aceh,5.5577,95.3222,79.2,85,70,9.35,ID,1706714192
321,monitos,8.25,-76.05,82.15,74,100,6.98,CO,1706714192
322,al ghayzah,16.2079,52.176,77.59,75,59,14.05,YE,1706714193
323,missoula,47.0166,-113.8009,25.84,87,96,2.57,US,1706714193
324,rohru,31.2167,77.75,42.26,87,100,4.38,IN,1706714194
325,vilyuchinsk,52.9306,158.4028,2.93,72,88,8.68,RU,1706714194
326,gusev,54.5922,22.1997,41.14,94,100,14.5,RU,1706714194
327,forster,-32.1667,152.5167,64.29,100,0,1.74,AU,1706714194
328,taroa,8.7058,171.2275,80.8,84,85,14.67,MH,1706714195
329,chamba,32.5667,76.1333,48.65,82,94,4.38,IN,1706714195
330,sisimiut,66.9395,-53.6735,-3.69,87,97,8.88,GL,1706714195
331,tynda,55.1667,124.7167,-22.2,96,100,3.4,RU,1706714195
332,price,39.5994,-110.8107,27.66,86,0,0.0,US,1706714195
333,bartica,6.4,-58.6167,84.52,75,99,4.47,GY,1706714196
334,newnham,-41.3833,147.1333,60.67,55,75,11.5,AU,1706714196
335,encheng,22.1839,112.3026,67.3,89,27,2.82,CN,1706714196
336,kuanda,56.3161,116.0806,-29.06,95,47,1.12,RU,1706714196
337,bahia de kino,28.8333,-111.9333,61.52,65,0,6.26,MX,1706714046
338,berezovyy,51.6667,135.7,-13.76,96,23,2.93,RU,1706714197
339,vilyuysk,63.7553,121.6247,-32.01,100,97,3.0,RU,1706714197
340,galle,6.0367,80.217,79.25,83,100,3.11,LK,1706714102
341,nizhnesortymskiy,62.4397,71.7603,9.46,95,100,9.95,RU,1706714197
342,nampa,43.5407,-116.5635,44.82,84,0,21.85,US,1706714198
343,lugoba,-6.45,38.3333,79.77,84,96,6.06,TZ,1706714198
344,keren,15.7778,38.4581,73.62,48,55,4.76,ER,1706714198
345,tommot,58.9564,126.2925,-12.55,97,100,6.85,RU,1706714176
346,bani suwayf,29.0744,31.0979,57.85,39,94,9.57,EG,1706714198
347,naantali,60.4674,22.0243,34.43,100,100,11.5,FI,1706714203
348,ulladulla,-35.35,150.4667,66.78,86,89,2.93,AU,1706714203
349,tolanaro,-25.0319,46.9987,74.86,87,97,14.99,MG,1706714204
350,salekhard,66.53,66.6019,-3.33,100,100,4.03,RU,1706714204
351,kerikeri,-35.2268,173.9474,62.91,89,16,5.01,NZ,1706714204
352,luoyang,34.6836,112.4536,34.29,94,100,12.15,CN,1706714204
353,archangelos,36.2149,28.1149,56.3,52,74,6.82,GR,1706714205
354,praia da vitoria,38.7333,-27.0667,61.75,89,45,7.87,PT,1706713933
355,taoudenni,22.6783,-3.9836,82.13,10,0,9.22,ML,1706714205
356,priozersk,61.0393,30.1291,33.01,86,100,8.21,RU,1706714205
357,luchegorsk,46.4764,134.2569,-13.14,89,80,6.2,RU,1706714205
358,kapuskasing,49.4169,-82.4331,33.89,93,100,11.5,CA,1706714079
359,korla,41.7597,86.1469,25.59,70,97,7.72,CN,1706714206
360,suoyarvi,62.0833,32.35,30.74,98,100,6.82,RU,1706714206
361,amahai,-3.3333,128.9167,79.95,86,97,3.33,ID,1706714206
362,chateau-du-loir,47.6949,0.4185,59.56,77,99,5.68,FR,1706714206
363,newman,37.3138,-121.0208,57.25,83,99,1.01,US,1706714207
364,san patricio,28.017,-97.5169,57.04,71,100,1.61,US,1706714207
365,katsuura,35.1333,140.3,60.87,85,76,21.88,JP,1706714207
366,belyy yar,53.6039,91.3903,-14.91,91,88,0.0,RU,1706714207
367,qaqortoq,60.7167,-46.0333,31.28,98,100,22.75,GL,1706714207
368,cabedelo,-6.9811,-34.8339,90.27,58,68,13.65,BR,1706714208
369,la trinite,14.7376,-60.9629,86.05,66,75,4.61,MQ,1706714208
370,remire-montjoly,4.9167,-52.2667,86.04,70,75,18.41,GF,1706714208
371,taro,-8.3862,115.28,71.6,93,100,1.25,ID,1706714208
372,timbuktu,16.7735,-3.0074,87.58,9,45,12.33,ML,1706714208
373,dudinka,69.4058,86.1778,-4.32,84,80,21.0,RU,1706714209
374,juegang,32.3174,121.1855,46.87,99,100,4.81,CN,1706714209
375,yola,9.2,12.4833,97.43,9,4,7.58,NG,1706714209
376,ola,59.5833,151.2833,-11.7,88,100,5.77,RU,1706713993
377,brisas de zicatela,15.8369,-97.0419,79.32,78,0,0.0,MX,1706714209
378,metlili chaamba,32.2667,3.6333,59.99,28,98,9.37,DZ,1706714210
379,mount isa,-20.7333,139.5,76.77,94,100,3.44,AU,1706714210
380,vila franca do campo,37.7167,-25.4333,64.89,99,23,3.58,PT,1706713932
381,masina,-4.3836,15.3914,79.14,88,40,0.0,CD,1706714210
382,kulpsville,40.2429,-75.3366,38.73,85,100,4.61,US,1706714211
383,sodankyla,67.4167,26.6,30.29,90,100,13.2,FI,1706714211
384,primero de mayo,-32.2552,-58.4228,93.54,24,0,3.67,AR,1706714211
385,crane,31.3974,-102.3501,52.14,55,98,7.2,US,1706714211
386,bundibugyo,0.7414,30.0417,89.82,30,97,6.98,UG,1706714211
387,nova sintra,14.8667,-24.7167,69.48,61,0,15.39,CV,1706714212
388,georgievka,49.3314,81.5761,14.4,85,100,11.36,KZ,1706714212
389,talas,38.6908,35.5538,38.07,56,20,12.66,TR,1706714212
390,madinat ash shamal,26.1293,51.2009,69.6,68,88,9.26,QA,1706714212
391,lodwar,3.1191,35.5973,93.45,31,100,16.08,KE,1706714212
392,ginir,7.1333,40.7,74.19,34,41,13.11,ET,1706714213
393,saint-philippe,-21.3585,55.7679,80.19,85,53,12.15,RE,1706714213
394,macomb,40.4592,-90.6718,35.83,89,100,10.0,US,1706713952
395,moranha,27.1833,94.9333,60.15,64,45,2.15,IN,1706714213
396,tremonton,41.7119,-112.1655,30.0,88,0,0.0,US,1706714213
397,tamanrasset,22.785,5.5228,73.31,14,0,5.75,DZ,1706714045
398,zaprudnya,56.5667,37.4333,32.81,95,100,5.88,RU,1706714214
399,quellon,-43.1167,-73.6167,58.01,99,100,3.8,CL,1706714214
400,labe,11.3182,-12.2833,89.02,12,98,4.38,GN,1706714214
401,sinnar,13.5691,33.5672,85.8,10,93,15.43,SD,1706714214
402,solleftea,63.1667,17.2667,8.46,76,100,9.64,SE,1706714215
403,bakchar,57.0186,82.0711,-0.9,99,92,4.52,RU,1706714215
404,'ain abid,36.2319,6.9433,58.87,43,41,5.7,DZ,1706714215
405,paita,-5.0892,-81.1144,76.78,79,100,7.94,PE,1706714216
406,zeya,53.75,127.2667,-16.51,94,19,3.69,RU,1706714216
407,arish,31.1316,33.7984,58.24,38,4,6.33,EG,1706714216
408,antofagasta,-23.65,-70.4,76.53,62,14,8.08,CL,1706714021
409,revda,56.801,59.9303,18.64,97,100,4.18,RU,1706714216
410,san bernardo del viento,9.3533,-75.9524,82.62,74,98,12.03,CO,1706714123
411,peace river,56.2501,-117.286,25.11,93,20,5.75,CA,1706714217
412,ingeniero jacobacci,-41.3427,-69.5448,75.88,21,14,12.93,AR,1706714217
413,kyren,51.6828,102.1408,-4.05,89,27,1.99,RU,1706714217
414,vernon,50.2581,-119.2691,43.29,96,100,2.3,CA,1706714176
415,shiyan,32.6475,110.7781,38.55,98,100,5.39,CN,1706714218
416,grand gaube,-20.0064,57.6608,82.8,82,15,3.0,MU,1706714218
417,caleta de carquin,-11.0925,-77.6267,77.52,75,100,8.52,PE,1706714218
418,micheweni,-4.9667,39.8333,83.44,75,95,12.8,TZ,1706714218
419,moree,-29.4667,149.85,78.3,65,55,12.33,AU,1706714219
420,flin flon,54.7682,-101.865,37.24,88,100,12.26,CA,1706713947
421,issoire,45.55,3.25,58.26,67,84,2.15,FR,1706714219
422,lere,10.387,8.5726,87.33,14,87,9.26,NG,1706714220
423,blackwater,-23.5833,148.8833,79.68,66,97,9.98,AU,1706714220
424,qui nhon,13.7667,109.2333,71.8,90,51,1.32,VN,1706714220
425,ponta delgada,37.7333,-25.6667,65.19,72,20,8.05,PT,1706714220
426,golere,16.2557,-14.1017,94.12,7,0,12.1,SN,1706714221
427,akwanga,8.9167,8.3833,97.74,13,61,4.59,NG,1706714221
428,karis,60.0718,23.6616,36.63,90,100,9.15,FI,1706714221
429,nombre de dios,23.85,-104.2333,49.55,40,100,2.06,MX,1706714221
430,berdigestyakh,62.0989,126.6992,-23.03,98,100,3.85,RU,1706714222
431,port macquarie,-31.4333,152.9167,68.9,84,4,0.94,AU,1706714222
432,kyshtovka,56.555,76.6271,5.34,95,100,5.99,RU,1706714222
433,senador pompeu,-5.5881,-39.3717,97.95,32,4,6.4,BR,1706714222
434,teknaf,20.8624,92.3058,65.88,65,80,7.94,BD,1706714222
435,lamu,-2.2717,40.902,84.42,78,94,11.88,KE,1706714095
436,nambucca heads,-30.65,153.0,70.16,81,52,4.12,AU,1706714223
437,plettenberg bay,-34.0527,23.3716,79.18,60,92,3.91,ZA,1706714223
438,sena madureira,-9.0656,-68.6569,76.59,97,100,1.66,BR,1706714224
439,pekanbaru,0.5333,101.45,82.72,78,20,5.75,ID,1706714224
440,xapuri,-10.6517,-68.5044,75.67,98,100,0.89,BR,1706714224
441,balqash,46.8481,74.995,17.76,91,100,9.01,KZ,1706714225
442,castillos,-34.1667,-53.8333,86.31,34,99,3.44,UY,1706714225
443,high river,50.5834,-113.8687,34.09,85,82,2.37,CA,1706714192
444,mossel bay,-34.1831,22.146,80.53,71,19,7.92,ZA,1706714225
445,jinghong,21.991,100.7341,58.5,49,1,3.11,CN,1706714228
446,san jose del cabo,23.0589,-109.6977,74.77,72,20,0.0,MX,1706714228
447,isafjordur,66.0755,-23.124,26.64,68,20,3.44,IS,1706714228
448,alta,69.9689,23.2717,31.26,69,0,12.66,NO,1706714229
449,sand springs,36.1398,-96.1089,51.24,81,0,1.99,US,1706714229
450,kerch,45.3583,36.4758,36.55,96,95,11.99,UA,1706714229
451,naze,28.3667,129.4833,61.72,84,37,4.43,JP,1706714229
452,brod,45.1375,17.9897,43.27,60,100,1.59,BA,1706714230
453,kununurra,-15.7667,128.7333,82.38,89,94,0.0,AU,1706714118
454,mosjoen,65.836,13.1908,44.71,87,75,13.0,NO,1706714230
455,arraias,-12.9288,-46.9437,73.22,86,100,1.86,BR,1706714230
456,brownfield,33.1812,-102.2744,45.95,45,98,4.29,US,1706714231
457,isangel,-19.55,169.2667,76.91,84,85,4.45,VU,1706714231
458,chinde,26.8418,88.0763,48.51,54,80,4.21,NP,1706714231
459,albardon,-31.4372,-68.5256,92.03,29,6,5.23,AR,1706714231
460,sechura,-5.5569,-80.8222,80.11,70,100,7.47,PE,1706714232
461,santiago de cao,-7.9589,-79.2392,77.13,78,40,12.66,PE,1706714232
462,desarmes,18.9917,-72.3889,85.59,58,7,1.41,HT,1706714232
463,dakhla,23.6848,-15.958,75.22,38,0,10.36,EH,1706714232
464,zhezqazghan,47.7833,67.7667,14.58,85,100,24.61,KZ,1706714232
465,carbonear,47.7332,-53.2148,25.14,79,97,11.7,CA,1706714233
466,egersund,58.4513,5.9997,41.38,92,100,26.42,NO,1706714233
467,la sarre,48.8002,-79.1996,30.99,95,100,10.47,CA,1706714233
468,rongelap,11.1635,166.8941,79.45,77,100,21.88,MH,1706714233
469,sittwe,20.15,92.9,68.99,67,7,8.93,MM,1706714234
470,venev,54.3553,38.2684,29.88,91,100,10.11,RU,1706714234
471,aykhal,66.0,111.5,-12.73,100,97,3.47,RU,1706714234
472,sitangkai,4.6628,119.3928,80.69,86,100,15.01,PH,1706714234
473,griffith,41.5284,-87.4237,39.13,84,100,5.75,US,1706714234
474,mount pleasant,32.7941,-79.8626,53.01,82,100,6.91,US,1706714235
475,bomdila,27.25,92.4,33.53,92,89,4.45,IN,1706714235
476,ayorou,14.7308,0.9174,89.87,10,99,13.42,NE,1706714235
477,taulaga,-11.0553,-171.0883,84.09,70,100,4.61,AS,1706714235
478,kasongo,-4.45,26.6667,75.81,78,100,4.23,CD,1706714236
479,pelabuhanratu,-6.9875,106.5514,79.05,88,100,1.39,ID,1706714236
480,tumayr,25.7039,45.868,67.68,35,0,10.98,SA,1706714236
481,mahajanga,-15.7167,46.3167,83.52,73,98,6.87,MG,1706714236
482,cockburn town,21.4612,-71.1419,74.12,60,100,5.28,TC,1706714236
483,kangding,30.0513,101.9603,37.56,72,92,4.21,CN,1706714237
484,namie,37.4833,141.0,35.71,64,22,6.44,JP,1706714237
485,iskushuban,10.2837,50.23,78.12,47,73,14.5,SO,1706714237
486,veracruz,19.3333,-96.6667,63.32,79,85,0.87,MX,1706714237
487,labytnangi,66.6572,66.4183,-4.54,100,100,1.5,RU,1706714238
488,teguise,29.0605,-13.564,66.42,64,6,6.91,ES,1706714238
489,kruisfontein,-34.0033,24.7314,82.62,57,100,7.07,ZA,1706714238
490,elizabethtown,37.694,-85.8591,40.77,89,100,3.44,US,1706714238
491,xam nua,20.4197,104.0439,61.11,75,13,2.68,LA,1706714238
492,lashio,22.9333,97.75,53.6,69,22,1.32,MM,1706714239
493,oranjemund,-28.55,16.4333,71.71,71,2,19.42,NA,1706714239
494,zin'kiv,50.2081,34.3638,32.43,83,97,7.4,UA,1706714239
495,marabba,12.35,32.1833,87.4,8,70,15.64,SD,1706714240
496,umm al quwain city,25.5647,55.5552,77.32,63,58,5.1,AE,1706714240
497,mount gambier,-37.8333,140.7667,54.82,96,29,3.87,AU,1706714240
498,isabela,6.7085,121.9711,80.65,87,100,11.3,PH,1706714241
499,dryden,49.7833,-92.7503,32.29,93,75,10.36,CA,1706714241
500,coahuayana de hidalgo,18.7,-103.6583,76.44,74,100,3.74,MX,1706714241
501,otacilio costa,-27.4831,-50.1219,84.6,36,9,0.89,BR,1706714241
502,sinabang,2.4803,96.3801,82.11,78,77,4.43,ID,1706714242
503,sungai penuh,-2.0833,101.3833,67.32,98,100,1.92,ID,1706714242
504,zemio,5.0314,25.1361,97.39,15,99,4.81,CF,1706714242
505,canutama,-6.5339,-64.3831,88.79,60,100,5.37,BR,1706714242
506,santa rita,-7.1139,-34.9781,90.27,51,40,12.66,BR,1706714242
507,mundri,-6.9558,111.71,75.45,95,100,10.71,ID,1706714243
508,inirida,3.8653,-67.9239,95.2,43,67,3.51,CO,1706714243
509,fiumicino-isola sacra,41.7675,12.2291,59.14,44,0,10.36,IT,1706714243
510,new plymouth,-39.0667,174.0833,60.8,93,1,10.09,NZ,1706714243
511,arraial do cabo,-22.9661,-42.0278,84.06,79,75,3.44,BR,1706714074
512,yarmouth,41.7057,-70.2286,33.94,69,100,3.0,US,1706714244
513,sheridan,44.8333,-106.9173,46.31,74,0,0.0,US,1706713993
514,jeju city,33.5097,126.5219,53.53,94,100,4.61,KR,1706714244
515,greymouth,-42.4667,171.2,58.6,85,96,4.52,NZ,1706714245
516,moranbah,-22.0016,148.0466,76.35,88,100,2.75,AU,1706714245
517,ostrovskoye,57.8057,42.2433,26.51,93,100,5.82,RU,1706714245
518,kavieng,-2.5744,150.7967,83.05,79,100,8.68,PG,1706714245
519,kilju,40.9642,129.3278,23.59,89,74,2.84,KP,1706714245
520,mutoko,-17.397,32.2268,68.25,72,100,2.82,ZW,1706714246
521,shizuishan,39.2333,106.7694,27.86,42,100,3.8,CN,1706714246
522,gornozavodsk,58.3758,58.3211,19.87,93,100,5.35,RU,1706714246
523,hammerfest,70.6634,23.6821,30.65,93,75,2.3,NO,1706714247
524,tralee,52.2704,-9.7026,53.85,94,100,12.66,IE,1706714247
525,tatarsk,55.219,75.9828,6.42,93,100,7.11,RU,1706714247
526,callao,-12.0667,-77.15,82.69,61,0,12.66,PE,1706714247
527,haenam,34.5711,126.5989,45.34,76,100,5.86,KR,1706714247
528,villa madero,19.4,-101.2667,58.98,48,100,3.22,MX,1706714248
529,mechetinskaya,46.7713,40.456,30.92,89,90,2.62,RU,1706714248
530,cabo san lucas,22.8909,-109.9124,74.75,79,40,4.61,MX,1706714248
531,puerto aysen,-45.4,-72.7,58.84,99,100,3.98,CL,1706714248
532,key biscayne,25.6937,-80.1628,66.02,66,20,9.22,US,1706714249
533,pundong,-7.9522,110.3486,78.22,89,100,6.17,ID,1706714249
534,mombetsu,44.3525,143.3525,26.65,92,98,5.66,JP,1706714249
535,santo antonio,-6.3106,-35.4789,95.97,31,31,12.95,BR,1706714249
536,virginia beach,36.8529,-75.978,47.05,88,75,12.66,US,1706714249
537,ryotsu-minato,38.0833,138.4333,50.36,75,97,12.8,JP,1706714250
538,shar'ya,58.3686,45.5144,21.97,97,100,3.0,RU,1706714250
539,susuman,62.7833,148.1667,-20.02,98,100,3.0,RU,1706714250
540,yashan,22.1975,109.9419,67.21,89,94,6.22,CN,1706714250
541,cosala,24.4125,-106.6908,67.44,53,99,3.49,MX,1706714251
542,kalmunai,7.4167,81.8167,79.5,83,45,3.47,LK,1706713961
543,porus,18.0354,-77.4117,81.21,58,3,3.47,JM,1706714251
544,gadzhiyevo,69.2551,33.3362,28.9,88,100,17.52,RU,1706714251
545,wau,7.7029,27.9953,92.89,12,73,7.43,SS,1706714251
546,amga,60.8953,131.9608,-27.72,97,100,1.72,RU,1706714252
547,romanovo,52.6182,81.2271,15.75,91,95,10.71,RU,1706714252
548,mar del plata,-38.0023,-57.5575,91.53,66,0,10.0,AR,1706714252
549,opuwo,-18.0607,13.84,85.96,37,81,10.42,NA,1706714252
550,turiacu,-1.6633,-45.3717,82.71,84,61,6.58,BR,1706714253
551,posto fiscal rolim de moura,-13.0833,-62.2667,97.03,41,97,1.05,BR,1706714253
552,inarajan village,13.2736,144.7484,79.77,79,34,24.65,GU,1706714253
553,sinan,34.8262,126.1086,41.11,75,100,19.66,KR,1706714253
554,kesinga,20.2,83.2333,73.54,39,98,2.62,IN,1706714253
555,shimoda,34.6667,138.95,56.1,90,100,17.58,JP,1706714254
556,chicoana,-25.1009,-65.5331,85.05,51,77,3.24,AR,1706714254
557,siluko,6.5386,5.1609,104.58,19,54,0.83,NG,1706714254
558,nadym,65.5333,72.5167,-13.18,98,10,11.45,RU,1706714254
559,trancas,-26.2314,-65.2803,91.71,31,0,0.51,AR,1706714255
560,sadovoye,47.7764,44.5089,27.93,95,16,3.76,RU,1706714255
561,infantes,38.7367,-3.0122,54.01,34,1,5.88,ES,1706714255
562,argostolion,38.1811,20.489,55.47,64,0,11.5,GR,1706714255
563,tofol,5.3248,163.0078,82.36,76,100,14.99,FM,1706714256
564,bandarbeyla,9.4942,50.8122,77.86,67,98,9.64,SO,1706714256
565,isnos,1.9356,-76.2406,74.37,54,23,3.56,CO,1706714256
566,huntsville,34.7304,-86.5861,43.27,79,75,13.8,US,1706714151
567,puerto rico,-26.796,-55.024,96.15,30,0,2.33,AR,1706714256
568,qarqaraly,49.4058,75.4742,13.26,88,100,14.16,KZ,1706714257
569,aktau,43.65,51.2,28.98,82,100,10.38,KZ,1706714257
570,bonner,48.8333,-117.0013,34.29,97,100,4.63,US,1706714257
571,pangoa,-12.1167,-73.0,70.39,99,100,0.54,PE,1706714257
572,rurrenabaque,-14.4413,-67.5278,89.29,74,20,3.44,BO,1706714257
573,guanare,9.0418,-69.7421,86.59,47,100,1.99,VE,1706714258
574,migori,-1.0634,34.4731,74.16,69,96,7.16,KE,1706714258
575,piqua,40.1448,-84.2424,37.9,98,100,6.42,US,1706714258
576,babayevo,59.3936,35.9371,30.7,96,100,6.44,RU,1706714258
577,bikenibeu village,1.3673,173.1241,82.36,89,100,2.3,KI,1706714259
